[
  { "id": "ranchi", "name": "Ranchi", "latitude": 23.3441, "longitude": 85.3096 },
  { "id": "dhanbad", "name": "Dhanbad", "latitude": 23.7957, "longitude": 86.4304 },
  { "id": "bokaro", "name": "Bokaro", "latitude": 23.6693, "longitude": 86.1511 },
  { "id": "jamshedpur", "name": "East Singhbhum", "latitude": 22.8046, "longitude": 86.2029 },
  { "id": "hazaribagh", "name": "Hazaribagh", "latitude": 23.9951, "longitude": 85.3611 },
  { "id": "giridih", "name": "Giridih", "latitude": 24.1856, "longitude": 86.3077 },
  { "id": "gumla", "name": "Gumla", "latitude": 23.0420, "longitude": 84.5421 },
  { "id": "simdega", "name": "Simdega", "latitude": 22.6153, "longitude": 84.5022 },
  { "id": "chatra", "name": "Chatra", "latitude": 24.2066, "longitude": 84.8700 },
  { "id": "palamu", "name": "Palamu", "latitude": 24.0800, "longitude": 84.0658 },
  { "id": "garhwa", "name": "Garhwa", "latitude": 24.1642, "longitude": 83.8061 },
  { "id": "latehar", "name": "Latehar", "latitude": 23.7441, "longitude": 84.4994 },
  { "id": "lohardaga", "name": "Lohardaga", "latitude": 23.4332, "longitude": 84.6820 },
  { "id": "west-singhbhum", "name": "West Singhbhum", "latitude": 22.5470, "longitude": 85.8024 },
  { "id": "saraikela-kharsawan", "name": "Saraikela Kharsawan", "latitude": 22.6996, "longitude": 85.9317 },
  { "id": "khunti", "name": "Khunti", "latitude": 23.0794, "longitude": 85.2799 },
  { "id": "ramgarh", "name": "Ramgarh", "latitude": 23.6326, "longitude": 85.5160 },
  { "id": "kodarma", "name": "Koderma", "latitude": 24.4670, "longitude": 85.5945 },
  { "id": "pakur", "name": "Pakur", "latitude": 24.6337, "longitude": 87.8493 },
  { "id": "sahebganj", "name": "Sahebganj", "latitude": 25.2395, "longitude": 87.6466 },
  { "id": "dumka", "name": "Dumka", "latitude": 24.2677, "longitude": 87.2481 },
  { "id": "deoghar", "name": "Deoghar", "latitude": 24.4857, "longitude": 86.6932 },
  { "id": "jamtara", "name": "Jamtara", "latitude": 23.9636, "longitude": 86.8024 },
  { "id": "godda", "name": "Godda", "latitude": 24.8274, "longitude": 87.2126 }
]
